[
  {
      "user_id": 3,
      "count": 1,
      "name": "Combo Calzone",
      "base_price": 14.95,
      "discount": 1.20,
      "location": "Amalfi's",
      "address": "4703 NE Fremont St, Portland, OR 97213",
      "type": ["pizza"],
      "url": "https://amalfisrestaurant.com/menu/",
      "phone": "503-284-6747",
      "hint": "if you want more get 'The Legendary Combo Pizza XL",
      "tip": 3,
      "notes": "",
      "published": true
  },
  {   "user_id": 3,
      "count": 1,
      "name": "The Legendary Combo Pizza XL",
      "base_price": 24.50,
      "discount": 0,
      "location": "Amalfi's",
      "address": "4703 NE Fremont St, Portland, OR 97213",
      "type": ["pizza', 'pork"],
      "url": "https://amalfisrestaurant.com/menu/",
      "phone": "503-284-6747",
      "hint": "if you want less get 'The Legendary Combo Pizza XL",
      "tip": 5,
      "notes": "",
      "published": true
  },
  {   "user_id": 3,
      "count": 1,
      "name": "Lemon-Berry Marscapone Cake",
      "base_price": 4.95,
      "discount": 0,
      "location": "Amalfi's",
      "address": "4703 NE Fremont St, Portland, OR 97213",
      "type": ["dessert"],
      "url": "https://amalfisrestaurant.com/menu/",
      "phone": "503-284-6747",
      "hint": "they run out durring the evenings sometimes",
      "tip": 1,
      "notes": "",
      "published": true
  },
  {   "user_id": 3,
      "count": 1,
      "name": "Spumoni (Ice Cream Quart)",
      "base_price": 9,
      "discount": 0,
      "location": "Amalfi's",
      "address": "4703 NE Fremont St, Portland, OR 97213",
      "type": ["ice cream", "dessert"],
      "url": "https://amalfisrestaurant.com/menu/",
      "phone": "503-284-6747",
      "hint": "Also available in a smaller size (pint=5 or quart=9: go quart)",
      "tip": 2,
      "notes": "",
      "published": true
  },
  {
      "user_id": 3,
      "count": 1,
      "name": "Chicken Fajita Tacos",
      "base_price": 2,
      "discount": 0,
      "location": "Azul Tequila Taqueria 2",
      "address": "2880 SE Division St, Portland, OR 97202",
      "type": ["tacos"],
      "url": "https://s3-media1.fl.yelpcdn.com/bphoto/Pt2OptJgYcPDP3-X9aHsQQ/o.jpg",
      "phone": "503-387-7479",
      "hint": "salsa choice",
      "tip": 0.4,
      "notes": "",
      "published": true
  },
  {   "user_id": 3,
      "count": 1,
      "name": "Steak Fajita Tacos",
      "base_price": 2,
      "discount": 0.25,
      "location": "Azul Tequila Taqueria 2",
      "address": "2880 SE Division St, Portland, OR 97202",
      "type": ["beef"],
      "url": "https://s3-media1.fl.yelpcdn.com/bphoto/Pt2OptJgYcPDP3-X9aHsQQ/o.jpg",
      "phone": "503-387-7479",
      "hint": "salsa choice",
      "tip": 0.4,
      "notes": "",
      "published": true
  },
  {
      "user_id": 2,
      "count": 2,
      "name": "Classic Benedict",
      "base_price": 14,
      "discount": 0,
      "location": "Besaws",
      "address": "1545 NW 21st Ave, Portland, OR 97209",
      "type": ["eggs"],
      "url": "http://www.besaws.com/menu-1/#brunc",
      "phone": "503-228-2619",
      "hint": "request a little extra hollandaise",
      "tip": 2.80,
      "notes": "",
      "published": true
  },
  {
      "user_id": 3,
      "count": 1,
      "name": "Pasta Del Fornaio, Fresh pappardelle pasta, Italian sausage, red wine, caramelized onion and marinara sauce",
      "base_price": 16.00,
      "discount": 0,
      "location": "Casa Italia on Division",
      "address": "3035 SE Division St., Portland, OR 97202",
      "type": ["pasta', 'sausag"],
      "url": "http://www.casaitaliaondivision.com/DinnerPartTwo.html",
      "phone": "971-279-568",
      "hint": "none",
      "tip": 3,
      "notes": "",
      "published": true
  },
  {
      "user_id": 3,
      "count": 1,
      "name": "Whole Grill Over Oak and Mesquite Wood Roasted Chicken (with side potatos and salad)",
      "base_price": 24.00,
      "discount": 0,
      "location": "Chicken and Guns",
      "address": "1207 SE Hawthorne Blvd, Portland, OR 97214",
      "type": ["chicken"],
      "url": "http://places.singleplatform.com/chicken-and-guns/menu",
      "phone": "503-234-7236",
      "hint": "discount for buying larger size",
      "tip": 5,
      "notes": "",
      "published": true
  },
  {
      "user_id": 3,
      "count": 1,
      "name": "Prime Rib Philly",
      "base_price": 11.25,
      "discount": 0,
      "location": "Charlie's Deli & Delivery",
      "address": "22 NW 4th Ave, Portland, OR 97209",
      "type": ["sandwich"],
      "url": "charliesdeli.com",
      "phone": "503-902-9428",
      "hint": "these lunch prices are cheaper than diner",
      "tip": 2,
      "notes": "",
      "published": true
  },
  {
      "user_id": 3,
      "count": 1,
      "name": "Meat Your Maker 18: Sausage, salami, pepperoni, onion, pepper, and olive",
      "base_price": 18,
      "discount": 0,
      "location": "The Crown, Imperial",
      "address": "410 SW Broadway, Portland, OR 97205",
      "type": ["pizza"],
      "url": "http://www.imperialpdx.com/the-crown/",
      "phone": "503-228-7224",
      "hint": "made by paleys place chef, 12''=$18, 18''=$26",
      "tip": 5,
      "notes": "",
      "published": true
  },
  {
      "user_id": 2,
      "count": 2,
      "name": "Beef Roll",
      "base_price": 9.95,
      "discount": 0,
      "location": "Duck House",
      "address": "1968 SW 5th Ave, Portland, OR 97201",
      "type": ["duck"],
      "url": "https://cdn.vox-cdn.com/uploads/chorus_asset/file/7066161/o-5.0.jpg",
      "phone": "971-801-8888",
      "hint": "very large portion",
      "tip": 2,
      "notes": "",
      "published": true
  },
  {
      "user_id": 3,
      "count": 1,
      "name": "Meat and Greet - Caramelized onions, sweet roasted peppers, salami, pepperoni, ham, tomato sauce and mozzarella",
      "base_price": 28,
      "discount": 0,
      "location": "Eat Pizza",
      "address": "2037 SW Morrison St, Portland, OR 97205",
      "type": ["pizza"],
      "url": " eatpizzaportland.com",
      "phone": "503-243-3663",
      "hint": "all toppings are free (add chevre cheese)",
      "tip": 6,
      "notes": "",
      "published": true
  },
  {
      "user_id": 3,
      "count": 1,
      "name": "Stir-fried Handmade Noodles with Pork Belly",
      "base_price": 10.95,
      "discount": 0,
      "location": "Franks Noodle House",
      "address": "822 NE Broadway St. Portland, OR, 97232",
      "type": ["pork"],
      "url": "http://www.franksnoodlehouseportland.com/menu/",
      "phone": "503-288-1007",
      "hint": "Also available in Beaverton, OR",
      "tip": 2.2,
      "notes": "",
      "published": true
  },
  {   "user_id": 3,
      "count": 1,
      "name": "Geneeral Tso's Chicken",
      "base_price": 10.95,
      "discount": 0,
      "location": "Franks Noodle House",
      "address": "822 NE Broadway St. Portland, OR, 97232",
      "type": ["chicken"],
      "url": "http://www.franksnoodlehouseportland.com/menu/",
      "phone": "503-288-1007",
      "hint": "Also available in Beaverton, OR",
      "tip": 2,
      "notes": "",
      "published": true
  },
  {
      "user_id": 2,
      "count": 4,
      "name": "Pork Bahn Mi Sandwich",
      "base_price": 8,
      "discount": 0,
      "location": "Luc Lac",
      "address": "835 SW 2nd Ave, Portland, OR 97204",
      "type": ["pork"],
      "url": "http://luclackitchen.com/",
      "phone": "503-222-0047",
      "hint": "Open Late",
      "tip": 2,
      "notes": "",
      "published": true
  },
  {   "user_id": 2,
      "count": 2,
      "name": "Round Steak and Lean Brisket Pho",
      "base_price": 9,
      "discount": 0,
      "location": "Luc Lac",
      "address": "835 SW 2nd Ave, Portland, OR 97204",
      "type": ["beef"],
      "url": "http://luclackitchen.com/",
      "phone": "503-222-0047",
      "hint": "Open Late",
      "tip": 2,
      "notes": "",
      "published": true
  },
  {
      "user_id": 2,
      "count": 1,
      "name": "Communication Breakdown - Tillamook® cheddar, grilled mushrooms, onions & bell peppers",
      "base_price": 13.25,
      "discount": 0,
      "location": "McMenamins Bagdad Theatre & Pub",
      "address": "3962 SE Hawthorne Blvd, Portland, OR 97214",
      "type": ["burger', 'beef"],
      "url": "https://www.mcmenamins.com/system/uploads/assets/Menus/Bagdad/BGmenu.pdf",
      "phone": "503-236-9234",
      "hint": "great place to see a movie for cheap",
      "tip": 2.5,
      "notes": "",
      "published": true
  },
  {
      "user_id": 2,
      "count": 1,
      "name": "Mt. Hood Roll Sushi",
      "base_price": 8.95,
      "discount": 0,
      "location": "Mio Sushi",
      "address": "3962 SE Hawthorne Blvd, Portland, OR 97214",
      "type": ["sushi"],
      "url": "https://www.miosushi.com/happyhour",
      "phone": "503-230-6981",
      "hint": "I believe they have happy hour/lunch discounts",
      "tip": 1.8,
      "notes": "",
      "published": true
  },
  {   "user_id": 2,
      "count": 1,
      "name": "Volcano Roll",
      "base_price": 9.95,
      "discount": 0,
      "location": "Mio Sushi",
      "address": "3962 SE Hawthorne Blvd, Portland, OR 97214",
      "type": ["sushi"],
      "url": "https://www.miosushi.com/happyhour",
      "phone": "503-230-6981",
      "hint": "I believe they have happy hour/lunch discounts",
      "tip": 2,
      "notes": "",
      "published": true
  },
  {
      "user_id": 3,
      "count": 1,
      "name": "Lamb Burger",
      "base_price": 14.00,
      "discount": 0,
      "location": "Nicholas Resturant",
      "address": "318 SE Grand Ave, Portland, OR 97214",
      "type": ["lamb"],
      "url": "http://nicholasrestaurant.com/tapas/",
      "phone": "503-235-5123",
      "hint": "best lebanese mediterranean food in portland",
      "tip": 3,
      "notes": "",
      "published": true
  },
  {   "user_id": 3,
      "count": 1,
      "name": "Lamb Platter",
      "base_price": 18.75,
      "discount": 0,
      "location": "Nicholas Resturant",
      "address": "318 SE Grand Ave, Portland, OR 97214",
      "type": ["lamb"],
      "url": "http://nicholasrestaurant.com/tapas/",
      "phone": "503-235-5123",
      "hint": "best lebanese mediterranean food in portland",
      "tip": 4,
      "notes": "",
      "published": true
  },
  {
      "user_id": 3,
      "count": 1,
      "name": "Chicken and Rice (Khao Man Gai) Breast Meat",
      "base_price": 9.25,
      "discount": 0,
      "location": "Nong's Khao Man Gai",
      "address": "1003 SW Alder St, Portland, OR 97205",
      "type": ["chicken"],
      "url": "http://khaomangai.com/menu/",
      "phone": "971-255-3480",
      "hint": "formerly a cart",
      "tip": 2,
      "notes": "",
      "published": true
  },
  {
      "user_id": 3,
      "count": 1,
      "name": "Barbacoa De Cordero Con Salad Verde",
      "base_price": 20.00,
      "discount": 0,
      "location": "Nuestra Cocina",
      "address": "2135 SE Division St, Portland, OR 97202",
      "type": ["beef"],
      "url": "http://nuestracocina.com/#sec3",
      "phone": "503-232-2135",
      "hint": "delicious but often pricy",
      "tip": 4,
      "notes": "",
      "published": true
  },
  {   "user_id": 3,
      "count": 1,
      "name": "Sopa De Lima Con Pollo (Tortilla Soup)",
      "base_price": 8.00,
      "discount": 0,
      "location": "Nuestra Cocina",
      "address": "2135 SE Division St, Portland, OR 97202",
      "type": ["chicken"],
      "url": "http://nuestracocina.com/#sec3",
      "phone": "503-232-2135",
      "hint": "delicious but often pricy",
      "tip": 2,
      "notes": "",
      "published": true
  },
  {
      "user_id": 3,
      "count": 1,
      "name": "BLT",
      "base_price": 8.00,
      "discount": 0,
      "location": "OHSU Cafe",
      "address": "700 SW Campus Dr, Portland, OR 97239",
      "type": ["pork"],
      "url": "n/a no menu, the grill",
      "phone": "503-346-0640",
      "hint": "decent hospital food item",
      "tip": 2,
      "notes": "",
      "published": true
  },
  {
      "user_id": 2,
      "count": 1,
      "name": "The Travis (Pepperoni Samami Canadian Bacon Peperoncini Onion mayo Musttard Oil Vinegar Mozzeralla)",
      "base_price": 8.00,
      "discount": 0,
      "location": "Oasis Cafe",
      "address": "3701 SE Hawthorne Blvd, Portland, OR 97214",
      "type": ["sandwich"],
      "url": "http://places.singleplatform.com/oasis-cafe-10/menu",
      "phone": "503-231-0901",
      "hint": "The sandwich is better than the pizza",
      "tip": 2,
      "notes": "",
      "published": true
  },
  {
      "user_id": 3,
      "count": 1,
      "name": "Cannelloni Frutti di Mare (Seafood Pasta)",
      "base_price": 15.50,
      "discount": 0,
      "location": "Pastini",
      "address": "2027 SE Division St, Portland, OR 97202",
      "type": ["seafood', 'pasta"],
      "url": "http://www.pastini.com/menu/new-pastini-menu-portland",
      "phone": "503-595-6400",
      "hint": "Extra sauce is nice",
      "tip": 3.1,
      "notes": "",
      "published": true
  },
  {
      "user_id": 3,
      "count": 1,
      "name": "Marquam(Ruben) Smoked corned beef, Sauerkraut, Aged Swiss, House Special Sauce, Ciabatta",
      "base_price": 11,
      "discount": 0,
      "location": "PDX Sliders",
      "address": "1605 SE Bybee Blvd, Portland, OR 97202",
      "type": ["burger', 'sandwich"],
      "url": "http://pdxsliders.com/",
      "phone": "971-717-5271",
      "hint": "$5.50 (s) / $11 (fs)",
      "tip": 2,
      "notes": "",
      "published": true
  },
  {
      "user_id": 3,
      "count": 1,
      "name": "Steak Pho",
      "base_price": 9.00,
      "discount": 0,
      "location": "Pho Hung",
      "address": "4717 SE Powell Blvd, Portland, OR 97206",
      "type": ["steak"],
      "url": "https://www.allmenus.com/or/portland/275377-pho-hung/menu",
      "phone": "503-775-3170",
      "hint": "local pho spot",
      "tip": 1.8,
      "notes": "",
      "published": true
  },
  {
      "user_id": 2,
      "count": 1,
      "name": "Pok Pok Wing Fried Chicken",
      "base_price": 2.50,
      "discount": 0,
      "location": "Pok Pok Wing",
      "address": "3120 SE Milwaukie Ave, Portland, OR 97202, USA",
      "type": ["chicken"],
      "url": "https://pokpokwing.com/menu/",
      "phone": "n/a",
      "hint": "mostly a chicken place",
      "tip": 0.50,
      "notes": "",
      "published": true
  },
  {
      "user_id": 2,
      "count": 5,
      "name": "Pok Pok Wing Fried Chicken",
      "base_price": 12.50,
      "discount": 0,
      "location": "Pok Pok",
      "address": "3226 SE Division St, Portland, OR 97202, USA",
      "type": ["chicken', 'thai"],
      "url": "https://pokpokpdx.com/main-menu/",
      "phone": "503-232-1387",
      "hint": "authentic thai food",
      "tip": 2,
      "notes": "",
      "published": true
  },
  {
      "user_id": 3,
      "count": 1,
      "name": "Hawaiian Ahi Poke (Fresh Ahi, Sweet Onion, Inamona, Ogo, Original Sauce)",
      "base_price": 12.50,
      "discount": 0,
      "location": "Poke Mon PDX",
      "address": "1485 SE Hawthorne Blvd, Portland, OR 97214, USA",
      "type": ["sushi', 'seafood"],
      "url": "http://www.pokemonpdx.com/",
      "phone": "503-894-9743",
      "hint": "Healthy option, essentially sushi salad",
      "tip": 2,
      "notes": "",
      "published": true
  },
  {
      "user_id": 2,
      "count": 1,
      "name": "Burger",
      "base_price": 11.50,
      "discount": 0,
      "location": "Sasquatch Brewery",
      "address": "6440 SW Capitol Hwy, Portland, OR 97239, USA",
      "type": ["beef"],
      "url": "http://www.sasquatchbrewery.com/menu",
      "phone": "503-402-1999",
      "hint": "They also offer beer to go",
      "tip": 2,
      "notes": "",
      "published": true
  },
  {
      "user_id": 3,
      "count": 1,
      "name": "Broad St Bomber",
      "base_price": 11.00,
      "discount": 0,
      "location": "Shut Up And Eat",
      "address": "3848 SE Gladstone St, Portland, OR 97202, USA",
      "type": ["beef"],
      "url": "http://shutupandeatpdx.com/",
      "phone": "503-719-6449",
      "hint": "The commpany name is also advice",
      "tip": 2,
      "notes": "",
      "published": true
  },
  {   "user_id": 3,
      "count": 1,
      "name": "Meatball Sandwich",
      "base_price": 11.00,
      "discount": 0,
      "location": "Shut Up And Eat",
      "address": "3848 SE Gladstone St, Portland, OR 97202, USA",
      "type": ["beef"],
      "url": "http://shutupandeatpdx.com/",
      "phone": "503-719-6449",
      "hint": "The commpany name is also advice",
      "tip": 2,
      "notes": "",
      "published": true
  },
  {   "user_id": 3,
      "count": 1,
      "name": "Onion Rings",
      "base_price": 4.00,
      "discount": 0,
      "location": "Shut Up And Eat",
      "address": "3848 SE Gladstone St, Portland, OR 97202, USA",
      "type": ["junk food"],
      "url": "http://shutupandeatpdx.com/",
      "phone": "503-719-6449",
      "hint": "The commpany name is also advice",
      "tip": 1,
      "notes": "",
      "published": true
  },
  {
      "user_id": 2,
      "count": 1,
      "name": "Hot Link Sausage (Beef & Pork) 1/2",
      "base_price": 10,
      "discount": 0,
      "location": "Smokehouse Tavern",
      "address": "1401 SE Morrison St #117, Portland, OR 97214, USA",
      "type": ["beef', 'pork"],
      "url": "http://smokehousetavernpdx.com/",
      "phone": "971-279-4850",
      "hint": "bbq is a game changer",
      "tip": 2,
      "notes": "",
      "published": true
  },
  {   "user_id": 2,
      "count": 1,
      "name": "Pulled Pork (Carlton Farms) ½ lb.",
      "base_price": 10,
      "discount": 0,
      "location": "Smokehouse Tavern",
      "address": "1401 SE Morrison St #117, Portland, OR 97214, USA",
      "type": ["pork"],
      "url": "http://smokehousetavernpdx.com/",
      "phone": "971-279-4850",
      "hint": "bbq is a game changer",
      "tip": 3,
      "notes": "",
      "published": true
  },
  {
      "user_id": 3,
      "count": 1,
      "name": "The Ol' dirty: Salami, Ricotta, Olive Oil and Pepperoncinis Small",
      "base_price": 25,
      "discount": 1.20,
      "location": "Sizzle Pie",
      "address": "624 E Burnside St, Portland, OR 97214, USA",
      "type": ["pork"],
      "url": "https://www.sizzlepie.com/",
      "phone": "503-234-7437",
      "hint": "tasty",
      "tip": "5",
      "notes": "",
      "published": true
  },
  {   "user_id": 3,
      "count": 1,
      "name": "Pepah Mesiah (add Pepperoni) Large",
      "base_price": 32,
      "discount": 0,
      "location": "Sizzle Pie",
      "address": "624 E Burnside St, Portland, OR 97214, USA",
      "type": ["pork', 'beef"],
      "url": "https://www.sizzlepie.com/",
      "phone": "503-234-7437",
      "hint": "tasty",
      "tip": 7,
      "published": true,
      "notes": "26 LG pizza, 3 pepperoni, 3 delivery"
  },
  {
      "user_id": 3,
      "count": 1,
      "name": "Burrito Del Mar",
      "base_price": 12,
      "discount": 0,
      "location": "Tamalie Boy",
      "address": "668 N Russell St, Portland, OR 97227",
      "type": ["mexican', 'sea food"],
      "url": "n/a",
      "phone": "503-477-6706",
      "hint": "sea food",
      "tip": 2,
      "notes": "",
      "published": true
  },
  {   "user_id": 3,
      "count": 1,
      "name": "Empanadas​ ​de​ ​Pescadillas - white fish roasted tomato, chipotle, onion, and capers. Served with kale mix, queso fresco, chipotle crema, and avocado salsa",
      "base_price": 9,
      "discount": 0,
      "location": "Tamalie Boy",
      "address": "668 N Russell St, Portland, OR 97227",
      "type": ["mexican"],
      "url": "n/a",
      "phone": "503-477-6706",
      "hint": "pairs well with many other items",
      "tip": 1,
      "notes": "",
      "published": true
  },
  {   "user_id": 3,
      "count": 1,
      "name": "Guacamole and Chips",
      "base_price": 8,
      "discount": 0,
      "location": "Tamalie Boy",
      "address": "668 N Russell St, Portland, OR 97227",
      "type": ["mexican"],
      "url": "n/a",
      "phone": "503-477-6706",
      "hint": "the chile oil makes is awesome",
      "tip": 1,
      "notes": "",
      "published": true
  },
  {
      "user_id": 3,
      "count": 1,
      "name": "Barbacoa Tacos",
      "base_price": 2.25,
      "discount": 0,
      "location": "Tecos",
      "address": "4132 SE Powell Blvd, Portland, OR 97202",
      "type": ["tacos', 'pork"],
      "url": "http://www.tecosfresh.com/combos-burritos-nachos-tacos-salads--menu",
      "phone": "503-954-2530",
      "hint": "very affordable, but tacos are their ownly good items",
      "tip": 0.45,
      "notes": "",
      "published": true
  },
  {   "user_id": 3,
      "count": 1,
      "name": "Carnitas Tacos",
      "base_price": 2.25,
      "discount": 0,
      "location": "Tecos",
      "address": "4132 SE Powell Blvd, Portland, OR 97202",
      "url": "http://www.tecosfresh.com/combos-burritos-nachos-tacos-salads--menu",
      "phone": "503-954-2530",
      "hint": "yum",
      "tip": 1,
      "notes": "",
      "published": true
  },
  {   "user_id": 3,
      "count": 1,
      "name": "Adobada (Al Pastor) Tacos",
      "base_price": 2.25,
      "discount": 0,
      "location": "Tecos",
      "address": "4132 SE Powell Blvd, Portland, OR 97202",
      "type": ["tacos', 'pork"],
      "url": "http://www.tecosfresh.com/combos-burritos-nachos-tacos-salads--menu",
      "phone": "503-954-2530",
      "hint": "marinated",
      "tip": 0.45,
      "notes": "",
      "published": true
  },
  {
      "user_id": 3,
      "count": 1,
      "name": "Tom Kha Soup",
      "base_price": 10,
      "discount": 0.50,
      "location": "Thai E-San Cuisine",
      "address": "133 SW 2nd Ave, Portland, OR 97204, USA",
      "type": ["thai"],
      "url": "http://esanthai.com/menu/",
      "phone": "503=223-4090",
      "hint": "Previously also on SE side of town",
      "tip": 2,
      "notes": "",
      "published": true
  },
  {
      "user_id": 2,
      "count": 2,
      "name": "Double Cheese Burger (a gourmet big mac)",
      "base_price": 16,
      "discount": 0,
      "location": "The Woodsman Tavern",
      "address": "4537 SE Division St, Portland, OR 97206",
      "type": ["beef"],
      "url": "http://woodsmantavern.com/wp-content/uploads/2017/07/afternoon.pdf",
      "phone": "971-373-8264",
      "hint": "request a little extra hollandais",
      "tip": 3,
      "notes": "",
      "published": true
  },
  {
      "user_id": 2,
      "count": 2,
      "name": "Whole Pies ''Meaty'' 14 inch",
      "base_price": 27.95,
      "discount": 0,
      "location": "Via Chicago",
      "address": "2013 NE Alberta st., Portland, OR 97206",
      "url": "http://places.singleplatform.com/via-chicago/menu",
      "type": ["beef"],
      "phone": "503-719-6809",
      "hint": "8 Serves 1-2 $15.95, 12 Serves 3-4 $24.95, 14 Serves 5-6 $27.95",
      "tip": 5.59,
      "notes": "",
      "published": true
  },
  {
      "user_id": 3,
      "count": 2,
      "name": "Frozen Salmon Burgers",
      "base_price": 10,
      "discount": 0,
      "location": "Costco",
      "address": "13130 SE 84th Ave, Portland, OR 97015, USA",
      "type": ["fish', 'salmon"],
      "url": "https://www.costco.com/grocery-floral.html",
      "phone": "503-794-5500",
      "hint": "Great food/protein that preseves a very long time",
      "tip": 0,
      "notes": "",
      "published": true
  },
  {
      "user_id": 3,
      "count": 1,
      "name": "Chocolate Covered Marzipan Large",
      "base_price": 4.00,
      "discount": 0,
      "location": "Edelweiss",
      "address": "3119 SE 12th Ave, Portland, OR 97202, USA",
      "type": ["chocolate"],
      "url": "http://places.singleplatform.com/edelweiss-sausage-co--delicatessen/menu",
      "phone": "503-238-4411",
      "hint": "Busy durring the holidays",
      "tip": 0,
      "notes": "",
      "published": true
  },
  {   "user_id": 3,
      "count": 1,
      "name": "Grilled Reuben",
      "base_price": 8.49,
      "discount": 0,
      "location": "Edelweiss",
      "address": "3119 SE 12th Ave, Portland, OR 97202, USA",
      "type": ["pork"],
      "url": "http://places.singleplatform.com/edelweiss-sausage-co--delicatessen/menu",
      "phone": "503-238-4411",
      "hint": "Busy durring the holidays",
      "tip": 0,
      "notes": "",
      "published": true
  },
  {   "user_id": 3,
      "count": 1,
      "name": "German Potato Salad (hot or cold) 1 lbs",
      "base_price": 4,
      "discount": 0,
      "location": "Edelweiss",
      "address": "3119 SE 12th Ave, Portland, OR 97202, USA",
      "type": ["potato"],
      "url": "http://places.singleplatform.com/edelweiss-sausage-co--delicatessen/menu",
      "phone": "503-238-4411",
      "hint": "Busy durring the holidays",
      "tip": 0,
      "notes": "",
      "published": true
  },
  {   "user_id": 3,
      "count": 1,
      "name": "Liverwurst 1 lbs",
      "base_price": 5,
      "discount": 0,
      "location": "Edelweiss",
      "address": "3119 SE 12th Ave, Portland, OR 97202, USA",
      "type": ["liver"],
      "url": "http://places.singleplatform.com/edelweiss-sausage-co--delicatessen/menu",
      "phone": "503-238-4411",
      "hint": "Busy durring the holidays",
      "tip": 0,
      "notes": "",
      "published": true
  },
  {   "user_id": 3,
      "count": 1,
      "name": "Rye Bread 1/2 loaf",
      "base_price": 5,
      "discount": 1,
      "location": "Edelweiss",
      "address": "3119 SE 12th Ave, Portland, OR 97202, USA",
      "type": ["bread"],
      "url": "http://places.singleplatform.com/edelweiss-sausage-co--delicatessen/menu",
      "phone": "503-238-4411",
      "hint": "Busy durring the holidays",
      "tip": 0,
      "notes": "",
      "published": true
  },
  {   "user_id": 3,
      "count": 1,
      "name": "Assorted German Beers ($1-5)",
      "base_price": 2,
      "discount": 0,
      "location": "Edelweiss",
      "address": "3119 SE 12th Ave, Portland, OR 97202, USA",
      "type": ["beer"],
      "url": "http://places.singleplatform.com/edelweiss-sausage-co--delicatessen/menu",
      "phone": "503-238-4411",
      "hint": "Busy durring the holidays",
      "tip": 0,
      "notes": "",
      "published": true
  },
  {
      "user_id": 2,
      "count": 1,
      "name": "Andes Mints",
      "base_price": 2,
      "discount": 0.25,
      "location": "Fred Meyer",
      "address": "3805 SE Hawthorne Blvd, Portland, OR 97214",
      "type": ["chocolate"],
      "url": "n/a",
      "phone": "503-872-3300",
      "hint": "Last I checked they do not have a good websit",
      "tip": 0,
      "notes": "",
      "published": true
  },
  {   "user_id": 2,
      "count": 1,
      "name": "Bolthouse Farms - Blue Goodness",
      "base_price": 5,
      "discount": 0,
      "location": "Fred Meyer",
      "address": "3805 SE Hawthorne Blvd, Portland, OR 97214",
      "type": ["juice"],
      "url": "n/a",
      "hint": "?",
      "tip": 0,
      "phone": "503-872-3300",
      "notes": "",
      "published": true
  },
  {   "user_id": 2,
      "count": 1,
      "name": "Ciabatta Bread 1 Loaf",
      "base_price": 4,
      "discount": 0.25,
      "location": "Fred Meyer",
      "address": "3805 SE Hawthorne Blvd, Portland, OR 97214",
      "type": ["bread', 'ingredient"],
      "url": "n/a",
      "phone": "503-872-3300",
      "hint": "?",
      "tip": 0,
      "notes": "",
      "published": true
  },
  {   "user_id": 2,
      "count": 1,
      "name": "Extra Virgin Olive Oil",
      "base_price": 8,
      "discount": 0.25,
      "location": "Fred Meyer",
      "address": "3805 SE Hawthorne Blvd, Portland, OR 97214",
      "type": ["ingredient"],
      "url": "?",
      "phone": "503-872-3300",
      "hint": "?",
      "notes": "",
      "published": true
  },
  {   "user_id": 3,
      "count": 1,
      "name": "Fruit & Cream Flavor Variety Pack Instant Oatmeal",
      "base_price": 5.00,
      "discount": 0.25,
      "location": "Fred Meyer",
      "address": "3805 SE Hawthorne Blvd, Portland, OR 97214",
      "type": ["grains', 'cereal"],
      "url": "?",
      "phone": "503-872-3300",
      "hint": "?",
      "tip": 0,
      "notes": "",
      "published": true
  },
  {   "user_id": 2,
      "count": 1,
      "name": "Marsee Traditional Rye Loaf",
      "base_price": 2,
      "discount": 0,
      "location": "Fred Meyer",
      "address": "3805 SE Hawthorne Blvd, Portland, OR 97214",
      "type": ["bread"],
      "url": "n/a",
      "hint": "?",
      "tip": 0,
      "phone": "503-872-3300",
      "notes": "",
      "published": true
  },
  {   "user_id": 2,
      "count": 1,
      "name": "Rasberries",
      "base_price": 4,
      "discount": 0.25,
      "location": "Fred Meyer",
      "address": "3805 SE Hawthorne Blvd, Portland, OR 97214",
      "type": ["fruit', 'healthy"],
      "url": "?",
      "phone": "503-872-3300",
      "hint": "?",
      "tip": 0,
      "notes": "",
      "published": true
  },
  {   "user_id": 2,
      "count": 1,
      "name": "Reeds Ginger Brew 4 Pack (No Alcohol)",
      "base_price": 4,
      "discount": 0.25,
      "location": "Fred Meyer",
      "address": "3805 SE Hawthorne Blvd, Portland, OR 97214",
      "type": ["drink"],
      "url": "?",
      "phone": "503-872-3300",
      "hint": "?",
      "tip": 0,
      "notes": "",
      "published": true
  },
  {   "user_id": 3,
      "count": 1,
      "name": "Sea Salt & Vinegar Kettle Chips",
      "base_price": 3,
      "discount": 0,
      "location": "Fred Meyer",
      "address": "3805 SE Hawthorne Blvd, Portland, OR 97214",
      "type": ["snack', potato"],
      "url": "?",
      "phone": "503-872-3300",
      "hint": "?",
      "tip": 0,
      "notes": "",
      "published": true
  },
  {   "user_id": 2,
      "count": 1,
      "name": "Smoked Salmon",
      "base_price": 4,
      "discount": 0.25,
      "location": "Fred Meyer",
      "address": "3805 SE Hawthorne Blvd, Portland, OR 97214",
      "type": ["fish"],
      "url": "?",
      "phone": "503-872-3300",
      "hint": "?",
      "tip": 0,
      "notes": "",
      "published": true
  },
  {   "user_id": 2,
      "count": 1,
      "name": "Strawberries",
      "base_price": 4,
      "discount": 0.25,
      "location": "Fred Meyer",
      "address": "3805 SE Hawthorne Blvd, Portland, OR 97214",
      "type": ["fruits"],
      "url": "?",
      "phone": "503-872-3300",
      "hint": "?",
      "tip": 0,
      "notes": "",
      "published": true
  },
  {
      "user_id": 2,
      "count": 1,
      "name": "Spicy Italian Sausage 1/lbs",
      "base_price": 5,
      "discount": 0.25,
      "location": "Fred Meyer",
      "address": "3805 SE Hawthorne Blvd, Portland, OR 97214",
      "type": ["pork"],
      "url": "?",
      "phone": "503-872-3300",
      "hint": "?",
      "tip": 0,
      "published": true
    },
  {
      "user_id": 2,
      "count": 1,
      "name": "Tide Laundry Detergent",
      "base_price": 6,
      "discount": 2,
      "location": "Fred Meyer",
      "address": "3805 SE Hawthorne Blvd, Portland, OR 97214",
      "type": ["non-food"],
      "url": "?",
      "phone": "503-872-3300",
      "hint": "?",
      "tip": 0,
      "notes": "",
      "published": true
  },
  {   "user_id": 3,
      "count": 1,
      "name": "Variety Beer 6 Pack",
      "base_price": 10,
      "discount": 2,
      "location": "Fred Meyer",
      "address": "3805 SE Hawthorne Blvd, Portland, OR 97214",
      "type": ["beer', 'alcohol"],
      "url": "?",
      "phone": "503-872-3300",
      "hint": "?",
      "tip": 0,
      "notes": "",
      "published": true
  },
  {
      "user_id": 3,
      "count": 1,
      "name": "Brussel Sprouts 1 1b",
      "base_price": 5.00,
      "discount": 0,
      "location": "New Seasons",
      "address": "4034 SE Hawthorne Blvd, Portland, OR 97214",
      "type": ["veggies"],
      "url": "https://www.newseasonsmarket.com/",
      "phone": "503-236-4800",
      "hint": "?",
      "tip": 0,
      "notes": "",
      "published": true
  },
  {   "user_id": 3,
      "count": 1,
      "name": "Grass Fed Bone in NY Steak Pacific Northwest, USA 1 lbs",
      "base_price": 14.95,
      "discount": 1.20,
      "location": "New Seasons",
      "address": "4034 SE Hawthorne Blvd, Portland, OR 97214",
      "type": ["beef"],
      "url": "https://www.newseasonsmarket.com/",
      "phone": "503-236-4800",
      "hint": "?",
      "tip": 0,
      "notes": "",
      "published": true
  },
  {   "user_id": 3,
      "count": 2,
      "name": "Rib Eye Steak 1 lbs",
      "base_price": 10,
      "discount": 0,
      "location": "New Seasons",
      "address": "4034 SE Hawthorne Blvd, Portland, OR 97214",
      "type": ["beef"],
      "url": "https://www.newseasonsmarket.com/",
      "phone": "503-236-4800",
      "hint": "?",
      "tip": 0,
      "notes": "",
      "published": true
  },
  {
      "user_id": 3,
      "count": 1,
      "name": "Dedchutes Sagefight Imperial IPA (Sage, Juniper Berries Beer 6 Pack)",
      "base_price": 10,
      "discount": 2,
      "location": "Safeway",
      "address": "2800 SE Hawthorne Blvd, Portland, OR 97214",
      "type": ["beer"],
      "url": "http://www.safeway.com/",
      "phone": "503-236-7070",
      "hint": "?",
      "tip": 0,
      "notes": "",
      "published": true
  },
  {
      "user_id": 3,
      "count": 1,
      "name": "Blueberry Vanilla Chevre",
      "base_price": 5,
      "discount": 0,
      "location": "Trader Joes",
      "address": "4715 SE Cesar E Chavez Blvd, Portland, OR 97202",
      "type": ["desserts"],
      "url": "https://www.traderjoes.com/fearless-flyer",
      "phone": "503-777-1601",
      "hint": "There is a hidden gnome in the store: find it",
      "tip": 0,
      "notes": "",
      "published": true
  },
  {   "user_id": 2,
      "count": 1,
      "name": "Brandy Beans",
      "base_price": 5,
      "discount": 0,
      "location": "Trader Joes",
      "address": "4715 SE Cesar E Chavez Blvd, Portland, OR 97202",
      "type": ["desserts"],
      "url": "https://www.traderjoes.com/fearless-flyer",
      "phone": "503-777-1601",
      "hint": "may be seasonal only",
      "tip": 0,
      "notes": "",
      "published": true
  },
  {   "user_id": 3,
      "count": 3,
      "name": "Broccoli & Cheddar Cheese Quiche",
      "base_price": 2,
      "discount": 0,
      "location": "Trader Joes",
      "address": "4715 SE Cesar E Chavez Blvd, Portland, OR 97202",
      "type": ["veggies"],
      "url": "https://www.traderjoes.com/fearless-flyer",
      "phone": "503-777-1601",
      "hint": "veggies",
      "tip": 0,
      "notes": "",
      "published": true
  },
  {   "user_id": 3,
      "count": 1,
      "name": "Chile Spiced Mango Slices",
      "base_price": 3,
      "discount": 0,
      "location": "Trader Joes",
      "address": "4715 SE Cesar E Chavez Blvd, Portland, OR 97202",
      "type": ["snacks"],
      "url": "https://www.traderjoes.com/fearless-flyer",
      "phone": "503-777-1601",
      "hint": "spicy",
      "tip": 0,
      "notes": "",
      "published": true
  },
  {   "user_id": 3,
      "count": 1,
      "name": "Chocolate Coated Chocolate Chip Dunkers",
      "base_price": 2,
      "discount": 0,
      "location": "Trader Joes",
      "address": "4715 SE Cesar E Chavez Blvd, Portland, OR 97202",
      "type": ["snacks"],
      "url": "https://www.traderjoes.com/fearless-flyer",
      "phone": "503-777-1601",
      "tip": 0,
      "notes": "",
      "published": true
  },
  {   "user_id": 3,
      "count": 1,
      "name": "Triple Ginger Snaps",
      "base_price": 2,
      "discount": 0,
      "location": "Trader Joes",
      "address": "4715 SE Cesar E Chavez Blvd, Portland, OR 97202",
      "type": ["snacks"],
      "url": "https://www.traderjoes.com/fearless-flyer",
      "phone": "503-777-1601",
      "hint": "healthy, cheap, tasty and store well",
      "tip": 0,
      "notes": "",
      "published": true
  },
  {   "user_id": 3,
      "count": 1,
      "name": "Speculoos Cookie Butter",
      "base_price": 3,
      "discount": 0,
      "location": "Trader Joes",
      "address": "4715 SE Cesar E Chavez Blvd, Portland, OR 97202",
      "type": ["ingredient"],
      "url": "https://www.traderjoes.com/fearless-flyer",
      "phone": "503-777-1601",
      "hint": "great on breads",
      "tip": 0,
      "notes": "",
      "published": true
  },
  {   "user_id": 3,
      "count": 1,
      "name": "Thai Lime & Chili Cashews",
      "base_price": 5,
      "discount": 0,
      "location": "Trader Joes",
      "address": "4715 SE Cesar E Chavez Blvd, Portland, OR 97202",
      "type": ["snacks"],
      "url": "https://www.traderjoes.com/fearless-flyer",
      "phone": "503-777-1601",
      "hint": "spicy",
      "tip": 0,
      "notes": "",
      "published": true
  },
  {   "user_id": 3,
      "count": 11,
      "name": "Turkey & Giblets Dinner (Cat Food)",
      "base_price": 1,
      "discount": 0.3,
      "location": "Trader Joes",
      "address": "4715 SE Cesar E Chavez Blvd, Portland, OR 97202",
      "type": ["cat food"],
      "url": "https://www.traderjoes.com/fearless-flyer",
      "phone": "503-777-1601",
      "hint": "supply limited",
      "tip": 0,
      "notes": "",
      "published": true
  },
  {   "user_id": 3,
      "count": 1,
      "name": "Weissella Soft Sugar Glazed Gingerbread Cookies Seasonal (German Style)",
      "base_price": 2,
      "discount": 0,
      "location": "Trader Joes",
      "address": "4715 SE Cesar E Chavez Blvd, Portland, OR 97202",
      "type": ["desserts"],
      "url": "https://www.traderjoes.com/fearless-flyer",
      "phone": "503-777-1601",
      "hint": "seasonal",
      "tip": 0,
      "notes": "",
      "published": true
  },
  {   "user_id": 3,
      "count": 1,
      "name": "Weissella Soft Chocolate Glazed Gingerbread Cookies Seasonal (German Style)",
      "base_price": 2,
      "discount": 0,
      "location": "Trader Joes",
      "address": "4715 SE Cesar E Chavez Blvd, Portland, OR 97202",
      "type": ["dessert"],
      "url": "https://www.traderjoes.com/fearless-flyer",
      "phone": "503-777-1601",
      "hint": "seasonal",
      "tip": 0,
      "notes": "",
      "published": true
  },
  {
      "user_id": 2,
      "count": 1,
      "name": "Wedding Soup",
      "base_price": 10,
      "discount": 0,
      "location": "Home Made",
      "address": "none",
      "type": ["lunch"],
      "url": "?",
      "phone": "?",
      "hint": "crock pot: consider adding parm and lime when serving",
      "tip": 0,
      "published": true
  }
]